[
  {
    "name": "筲箕灣牙科診所",
    "address": "筲箕灣寶文街1號峻峰花園地下1號舖",
    "region": "港島區",
    "count": "1",
    "type": "NGO/社企",
    "phone": "2217 9212",
    "hours": "星期一至五　上午10:00至下午2:00\n　　　　　　下午3:00至晚上8:00",
    "photo": "無照片",
    "city": "香港",
    "country": "香港",
    "isGreaterBayArea": false
  },
  {
    "name": "興民邨牙科診所",
    "address": "柴灣興民邨興民商場406號舖",
    "region": "港島區",
    "count": "1",
    "type": "NGO/社企",
    "phone": "2557 8906",
    "hours": "星期一至六　上午9:00至下午1:00\n星期一至五　下午2:00至晚上7:00",
    "photo": "無照片",
    "city": "香港",
    "country": "香港",
    "isGreaterBayArea": false
  },
  {
    "name": "彩雲邨牙科診所",
    "address": "彩雲(一)邨長波樓109號地下",
    "region": "九龍區",
    "count": "1",
    "type": "NGO/社企",
    "phone": "2757 8223",
    "hours": "",
    "photo": "無照片",
    "city": "香港",
    "country": "香港",
    "isGreaterBayArea": false
  },
  {
    "name": "慈雲山牙科診所",
    "address": "慈雲山雲華街45號慈雲山(南)社區中心二樓",
    "region": "九龍區",
    "count": "1",
    "type": "NGO/社企",
    "phone": "2323 2541",
    "hours": "星期一至六　   上午9:00-12:00",
    "photo": "無照片",
    "city": "香港",
    "country": "香港",
    "isGreaterBayArea": false
  },
  {
    "name": "白田邨牙科診所",
    "address": "石硤尾白田邨康田樓地下",
    "region": "九龍區",
    "count": "1",
    "type": "NGO/社企",
    "phone": "2776 5462",
    "hours": "星期一、二、四、五、六　\n早上9:30-下午1:30\n下午3:00-晚上8:00",
    "photo": "無照片",
    "city": "香港",
    "country": "香港",
    "isGreaterBayArea": false
  },
  {
    "name": "李鄭屋邨牙科診所",
    "address": "長沙灣李鄭屋邨商場地下113號",
    "region": "九龍區",
    "count": "1",
    "type": "NGO/社企",
    "phone": "2729 7366",
    "hours": "星期一至六　上午9:00-中午12:00\n星期一至五              下午2:00-5:00\n星期二　　　          晚上7:00-9:30",
    "photo": "無照片",
    "city": "香港",
    "country": "香港",
    "isGreaterBayArea": false
  },
  {
    "name": "天悅邨牙科診所",
    "address": "天水圍天悅邨悅泰樓地下",
    "region": "新界區",
    "count": "1",
    "type": "NGO/社企",
    "phone": "2475 1582",
    "hours": "星期一至五　上午9:00-下午1:00\n　　　　　　下午2:00-晚上6:30",
    "photo": "無照片",
    "city": "香港",
    "country": "香港",
    "isGreaterBayArea": false
  },
  {
    "name": "逸東邨牙科診所",
    "address": "東涌逸東邨一號停車場二樓",
    "region": "新界區",
    "count": "1",
    "type": "NGO/社企",
    "phone": "3140 6005",
    "hours": "",
    "photo": "無照片",
    "city": "香港",
    "country": "香港",
    "isGreaterBayArea": false
  },
  {
    "name": "九龍中牙科診所",
    "address": "香港九龍尖沙咀加連威老道33號1樓",
    "region": "九龍區",
    "count": "1",
    "type": "NGO/社企",
    "phone": "2731 6214",
    "hours": "星期一至五　上午9:00至下午1:00\n　　　　　　下午2:00至晚上6:00\n星期六    　上午9:00至下午12:30",
    "photo": "無照片",
    "city": "香港",
    "country": "香港",
    "isGreaterBayArea": false
  },
  {
    "name": "牙科診所",
    "address": "香港灣仔石水渠街85號8樓",
    "region": "港島區",
    "count": "1",
    "type": "NGO/社企",
    "phone": "2835 4381",
    "hours": "",
    "photo": "無照片",
    "city": "香港",
    "country": "香港",
    "isGreaterBayArea": false
  },
  {
    "name": "觀塘牙科診所",
    "address": "九龍觀塘翠屏道3號9樓",
    "region": "九龍區",
    "count": "1",
    "type": "NGO/社企",
    "phone": "2950 8101",
    "hours": "星期一至五　上午9:00至下午1:00\n　　　　　　下午2:00至晚上7:30\n星期六    　上午9:00至下午1:00",
    "photo": "無照片",
    "city": "香港",
    "country": "香港",
    "isGreaterBayArea": false
  },
  {
    "name": "土瓜灣牙科診所",
    "address": "九龍土瓜灣樂民新村G座144號舖",
    "region": "九龍區",
    "count": "1",
    "type": "NGO/社企",
    "phone": "3590 9449",
    "hours": "星期一至五、星期六 (隔週)\n上午9:00至下午1:00\n下午2:00至晚上6:00",
    "photo": "無照片",
    "city": "香港",
    "country": "香港",
    "isGreaterBayArea": false
  },
  {
    "name": "靈實秀茂坪診所",
    "address": "九龍秀茂坪邨秀茂坪商場314室",
    "region": "九龍區",
    "count": "1",
    "type": "NGO/社企",
    "phone": "2354 8333",
    "hours": "星期一及五 上午8:30至下午1:00\n　　　 下午3:30至7:30\n星期二及四 上午8:30至下午1:00\n　　　  下午3:00至7:00\n星期三 　　上午8:30至下午1:00\n　　　 下午3:30至7:00\n星期六 　　上午8:30至下午1:00\n              下午2:00至5:00",
    "photo": "無照片",
    "city": "香港",
    "country": "香港",
    "isGreaterBayArea": false
  },
  {
    "name": "靈實白普理景林診所",
    "address": "香港新界將軍澳景林邨景櫚樓地下3號",
    "region": "九龍區",
    "count": "1",
    "type": "NGO/社企",
    "phone": "2701 9223",
    "hours": "星期一至五 上午8:30至下午1:00\n　　     下午3:00至7:30\n星期六 　　上午8:30至下午1:00\n 　　     下午2:00至4:30",
    "photo": "無照片",
    "city": "香港",
    "country": "香港",
    "isGreaterBayArea": false
  },
  {
    "name": "靈實余兆麒厚德診所",
    "address": "香港新界將軍澳常寧路厚德邨TKO Gateway西翼地下W017號鋪",
    "region": "九龍區",
    "count": "1",
    "type": "NGO/社企",
    "phone": "2706 6881",
    "hours": "星期一、二、四及五\n上午8:30至下午1:00\n下午2:30至7:30\n星期三 　　上午8:30至下午1:00\n　　     下午3:30至7:30\n星期六 　　上午8:30至下午1:00\n              下午2:00至5:00",
    "photo": "無照片",
    "city": "香港",
    "country": "香港",
    "isGreaterBayArea": false
  },
  {
    "name": "靈實余兆麒寶林診所",
    "address": "香港新界將軍澳寶林邨寶寧樓327-328室",
    "region": "九龍區",
    "count": "1",
    "type": "NGO/社企",
    "phone": "2704 5334",
    "hours": "星期一 　　 上午8:30至下午2:00\n　　　 下午3:30至7:30\n星期二至五   上午8:30至下午1:00\n　　　   下午3:30至7:30\n星期六 　　  上午8:30至下午1:00\n　　　　下午2:00至5:00",
    "photo": "無照片",
    "city": "香港",
    "country": "香港",
    "isGreaterBayArea": false
  },
  {
    "name": "靈實余兆麒調景嶺診所",
    "address": "香港新界將軍澳健明邨明日樓B翼地下",
    "region": "九龍區",
    "count": "1",
    "type": "NGO/社企",
    "phone": "3144 9250",
    "hours": "星期一至五   上午9:00至下午1:00\n　　      下午2:00–6:00\n星期六　　   上午8:30至下午1:00",
    "photo": "無照片",
    "city": "香港",
    "country": "香港",
    "isGreaterBayArea": false
  },
  {
    "name": "靈實余兆麒茵怡診所",
    "address": "香港新界將軍澳貿泰路8號茵怡花園第2座地下7號舖",
    "region": "九龍區",
    "count": "1",
    "type": "NGO/社企",
    "phone": "2997 0324",
    "hours": "星期一及五    上午9:00至下午1:00\n　　  　  下午3:00至7:30\n星期二及四    上午9:00至下午1:00\n　　  　   下午2:30至7:00\n星期三 　　   上午9:00至下午1:30\n星期六 　　   上午9:00至下午1:00\n　　  　   下午2:00至4:00",
    "photo": "無照片",
    "city": "香港",
    "country": "香港",
    "isGreaterBayArea": false
  },
  {
    "name": "寰宇希望．孫周月琴慈善基金牙科中心",
    "address": "香港九龍太子西洋菜北街296-302號鉅成大廈地下1號舖",
    "region": "九龍區",
    "count": "1",
    "type": "NGO/社企",
    "phone": "2616 0661",
    "hours": "星期一、二、三、五：上午十時至晚上七時\n星期六：上午十時至下午五時半\n星期四：上午十時至下午二時",
    "photo": "無照片",
    "city": "香港",
    "country": "香港",
    "isGreaterBayArea": false
  },
  {
    "name": "寰宇希望．左滌江慈善信託基金牙科中心",
    "address": "香港九龍深水埗桂林街157-161號建新大廈地下C號舖",
    "region": "九龍區",
    "count": "1",
    "type": "NGO/社企",
    "phone": "2156 2055",
    "hours": "星期一、二、四、五：上午十時至晚上七時\n星期六：上午十時至下午五時半\n星期三：上午十時至下午二時",
    "photo": "無照片",
    "city": "香港",
    "country": "香港",
    "isGreaterBayArea": false
  },
  {
    "name": "寰宇希望．利銘澤黃瑤璧慈善基金牙科中心",
    "address": "香港新界葵芳榮芳路9號恆景商場地下G11舖",
    "region": "新界區",
    "count": "1",
    "type": "NGO/社企",
    "phone": "2157 3740",
    "hours": "星期一、二、三、五：上午十時至晚上七時\n星期六：上午十時至下午五時半\n星期四：上午十時至下午二時",
    "photo": "無照片",
    "city": "香港",
    "country": "香港",
    "isGreaterBayArea": false
  },
  {
    "name": "樂善堂陳廣興紀念基層醫療中心牙科診所",
    "address": "九龍城聯合道48號地下",
    "region": "九龍區",
    "count": "1",
    "type": "NGO/社企",
    "phone": "2383 2230",
    "hours": "星期一至五　上午9:00至下午1:00\n                          下午2:30至晚上6:30\n星期六    　     上午9:00至下午1:00",
    "photo": "無照片",
    "city": "香港",
    "country": "香港",
    "isGreaterBayArea": false
  },
  {
    "name": "樂善堂王兆生大埔分科診所",
    "address": "大埔墟運頭街8號地下",
    "region": "新界區",
    "count": "1",
    "type": "NGO/社企",
    "phone": "2653 5590",
    "hours": "",
    "photo": "無照片",
    "city": "香港",
    "country": "香港",
    "isGreaterBayArea": false
  },
  {
    "name": "明愛香港仔牙科診所",
    "address": "香港仔田灣街 22 號明愛香港仔服務中心地下",
    "region": "港島區",
    "count": "1",
    "type": "NGO/社企",
    "phone": "2552 4215",
    "hours": "星期一至五　上午8:45至下午5:00\n     星期六　    上午8:45至下午12:30",
    "photo": "無照片",
    "city": "香港",
    "country": "香港",
    "isGreaterBayArea": false
  },
  {
    "name": "明愛牛頭角牙科診所",
    "address": "九龍牛頭角安德道 1 號明愛中心地下",
    "region": "九龍區",
    "count": "1",
    "type": "NGO/社企",
    "phone": "3796 4621",
    "hours": "",
    "photo": "無照片",
    "city": "香港",
    "country": "香港",
    "isGreaterBayArea": false
  },
  {
    "name": "明愛荃灣牙科診所",
    "address": "新界荃灣眾安街 146 號 B 座地下",
    "region": "新界區",
    "count": "1",
    "type": "NGO/社企",
    "phone": "2615 1461",
    "hours": "",
    "photo": "無照片",
    "city": "香港",
    "country": "香港",
    "isGreaterBayArea": false
  },
  {
    "name": "仁愛堂張心瑜牙科中心",
    "address": "九龍何文田佛光街80號何文田廣場地下2號舖",
    "region": "九龍區",
    "count": "1",
    "type": "NGO/社企",
    "phone": "2111 3531/\n2111 3532",
    "hours": "星期一至五　上午9:30至下午1:00\n                        下午2:30至晚上7:30\n  星期六　    上午9:30至下午1:00\n                      下午2:30至晚上5:30",
    "photo": "無照片",
    "city": "香港",
    "country": "香港",
    "isGreaterBayArea": false
  },
  {
    "name": "仁愛堂謝吳翠霞綜合醫療中心牙科診所",
    "address": "大埔廣福道2-16號廣福華庭1-2號地舖",
    "region": "新界區",
    "count": "1",
    "type": "NGO/社企",
    "phone": "2652 0071",
    "hours": "",
    "photo": "無照片",
    "city": "香港",
    "country": "香港",
    "isGreaterBayArea": false
  },
  {
    "name": "仁愛堂陳慧玲綜合醫療中心牙科診所",
    "address": "葵芳葵義路15號葵芳閣地下",
    "region": "新界區",
    "count": "1",
    "type": "NGO/社企",
    "phone": "3690 8198",
    "hours": "星期一至五　上午9:30至下午1:00\n                        下午2:30至晚上7:30\n星期六、日  上午9:30至下午1:00\n                      下午2:30至晚上5:30",
    "photo": "無照片",
    "city": "香港",
    "country": "香港",
    "isGreaterBayArea": false
  },
  {
    "name": "仁愛堂偉事高牙科診所",
    "address": "屯門啟民徑18號仁愛堂賽馬會社區及體育中心5 樓",
    "region": "新界區",
    "count": "1",
    "type": "NGO/社企",
    "phone": "2440 6624",
    "hours": "星期一至六　上午9:30至下午1:00\n星期一、六  下午2:30至晚上7:00\n星期二至五  下午2:30至晚上8:00",
    "photo": "無照片",
    "city": "香港",
    "country": "香港",
    "isGreaterBayArea": false
  },
  {
    "name": "仁愛堂田家炳綜合醫療中心牙科診所",
    "address": "元朗壽富街3號",
    "region": "新界區",
    "count": "1",
    "type": "NGO/社企",
    "phone": "2443 2319",
    "hours": "星期一至六　上午9:00至下午1:00\n                         下午2:00至晚上6:30",
    "photo": "無照片",
    "city": "香港",
    "country": "香港",
    "isGreaterBayArea": false
  },
  {
    "name": "香港聖公會麥理浩夫人中心牙醫診所",
    "address": "新界葵涌和宜合道22號5字樓",
    "region": "新界區",
    "count": "1",
    "type": "NGO/社企",
    "phone": "2619 1903",
    "hours": "星期一、三、五\n上午10時至下午1時\n下午3時至下午8時",
    "photo": "無照片",
    "city": "香港",
    "country": "香港",
    "isGreaterBayArea": false
  },
  {
    "name": "聖公會荊冕堂傑德牙科醫務所",
    "address": "荃灣德士古道67號聖公會荊冕堂地下",
    "region": "新界區",
    "count": "1",
    "type": "NGO/社企",
    "phone": "2614 5333",
    "hours": "星期二、四        上午9時至下午1時\n                              下午3時至下午7時\n星期六                 上午9時至下午1時\n                               下午2時至下午6時",
    "photo": "無照片",
    "city": "香港",
    "country": "香港",
    "isGreaterBayArea": false
  },
  {
    "name": "白普理廣田社區健康中心牙科診所",
    "address": "九龍藍田廣田邨廣田商場203室",
    "region": "九龍區",
    "count": "1",
    "type": "NGO/社企",
    "phone": "2340 3694",
    "hours": "星期一至六　上午9:00至下午1:00\n星期一      下午2:00至晚上7:00\n星期二至五  下午2:00至晚上6:00\n星期六      下午2:00至下午5:00",
    "photo": "無照片",
    "city": "香港",
    "country": "香港",
    "isGreaterBayArea": false
  },
  {
    "name": "賽馬會和樂社區健康中心牙科診所",
    "address": "九龍觀塘協和街和樂邨居安樓26 – 33號地下",
    "region": "九龍區",
    "count": "1",
    "type": "NGO/社企",
    "phone": "2344 2603",
    "hours": "星期一至五　上午8:30至下午1:00\n                         下午2:00至下午5:30",
    "photo": "無照片",
    "city": "香港",
    "country": "香港",
    "isGreaterBayArea": false
  },
  {
    "name": "秀茂坪社區健康中心牙科診所",
    "address": "九龍觀塘秀茂坪邨秀茂坪商場313室",
    "region": "九龍區",
    "count": "1",
    "type": "NGO/社企",
    "phone": "2348 2209",
    "hours": "星期一至六　上午8:30至下午1:00\n星期一二四五 下午2:00至晚上8:00\n星期三      下午2:00至晚上6:00\n星期六      下午2:00至下午5:00",
    "photo": "無照片",
    "city": "香港",
    "country": "香港",
    "isGreaterBayArea": false
  },
  {
    "name": "富亨社區健康中心牙科診所",
    "address": "新界大埔富亨邨鄰里社區中心4樓",
    "region": "新界區",
    "count": "1",
    "type": "NGO/社企",
    "phone": "2664 6231",
    "hours": "星期一至六　上午8:30至下午1:00\n星期一至五    下午2:00至晚上8:00\n  星期六      下午2:00至下午5:00",
    "photo": "無照片",
    "city": "香港",
    "country": "香港",
    "isGreaterBayArea": false
  },
  {
    "name": "賽馬會天水圍社區健康中心牙科診所",
    "address": "新界天水圍天晴邨天晴社區綜合服務大樓1樓103室",
    "region": "新界區",
    "count": "1",
    "type": "NGO/社企",
    "phone": "3156 9088",
    "hours": "星期一至六　上午8:30至下午1:00\n星期一三五　下午2:00至晚上5:30\n星期二四  　下午2:00至晚上7:00\n星期六      下午2:00至下午5:00",
    "photo": "無照片",
    "city": "香港",
    "country": "香港",
    "isGreaterBayArea": false
  },
  {
    "name": "仁濟醫院牙科診所",
    "address": "香港北角馬寶道41-47號華寶商業大廈地下5號舖",
    "region": "港島區",
    "count": "1",
    "type": "NGO/社企",
    "phone": "2395 1700",
    "hours": "星期一至六　上午9:00至下午1:00\n 下午2:00至晚上6:00",
    "photo": "無照片",
    "city": "香港",
    "country": "香港",
    "isGreaterBayArea": false
  },
  {
    "name": "仁濟醫院蘇啟聲牙科診所",
    "address": "新界荃灣仁濟街7-11號仁濟醫院C座六樓",
    "region": "新界區",
    "count": "1",
    "type": "NGO/社企",
    "phone": "2411 3630",
    "hours": "",
    "photo": "無照片",
    "city": "香港",
    "country": "香港",
    "isGreaterBayArea": false
  },
  {
    "name": "東華三院施黃瑞娟紀念牙科中心",
    "address": "北角馬寶道28號華匯中心11樓",
    "region": "港島區",
    "count": "1",
    "type": "NGO/社企",
    "phone": "3585 8416",
    "hours": "星期一至六　上午9:00至下午1:00\n星期一至五　下午2:00至下午5:00",
    "photo": "無照片",
    "city": "香港",
    "country": "香港",
    "isGreaterBayArea": false
  },
  {
    "name": "東華三院牙科診所",
    "address": "九龍窩打老道25號廣華醫院三樓",
    "region": "九龍區",
    "count": "1",
    "type": "NGO/社企",
    "phone": "2332 9737",
    "hours": "",
    "photo": "無照片",
    "city": "香港",
    "country": "香港",
    "isGreaterBayArea": false
  },
  {
    "name": "牙醫診所",
    "address": "九龍黃大仙鳳德道38號嗇色園社會服務大樓地下C",
    "region": "九龍區",
    "count": "1",
    "type": "NGO/社企",
    "phone": "2321 3389",
    "hours": "星期一至六　上午9:00至下午1:00\n星期一至五　下午2:00至下午6:00",
    "photo": "無照片",
    "city": "香港",
    "country": "香港",
    "isGreaterBayArea": false
  },
  {
    "name": "保良局彩頤居綜合健康中心牙科診所",
    "address": "九龍牛頭角彩霞道55號彩頤居1樓",
    "region": "九龍區",
    "count": "1",
    "type": "NGO/社企",
    "phone": "2713 1128\n（只限預約）",
    "hours": "星期一至六　上午8:30至下午12:30\n星期一至五　下午1:30至下午5:30",
    "photo": "無照片",
    "city": "香港",
    "country": "香港",
    "isGreaterBayArea": false
  },
  {
    "name": "深水埗區議會保良局石硤尾社區中心牙科診所",
    "address": "九龍深水埗白田街13號石硤尾邨美葵樓延伸平台P 層101號舖",
    "region": "九龍區",
    "count": "1",
    "type": "NGO/社企",
    "phone": "2390 2711",
    "hours": "星期一至六　上午9:00至下午1:00\n                           下午2:00至下午6:00",
    "photo": "無照片",
    "city": "香港",
    "country": "香港",
    "isGreaterBayArea": false
  },
  {
    "name": "楊震牙科診所",
    "address": "香港灣仔皇后大道東271號衛斯理大樓10字樓",
    "region": "港島區",
    "count": "1",
    "type": "NGO/社企",
    "phone": "2167 8884",
    "hours": "星期一至六　上午9:00至下午1:00\n　                      下午2:00至下午6:00\n(星期六隔週)",
    "photo": "無照片",
    "city": "香港",
    "country": "香港",
    "isGreaterBayArea": false
  },
  {
    "name": "靈光醫務所牙科診所",
    "address": "九龍盛德街40號二樓",
    "region": "九龍區",
    "count": "1",
    "type": "NGO/社企",
    "phone": "2711 0324",
    "hours": "星期一至六　上午9:00至下午1:00\n　                     下午2:30至下午6:00",
    "photo": "無照片",
    "city": "香港",
    "country": "香港",
    "isGreaterBayArea": false
  },
  {
    "name": "平安牙科診所",
    "address": "九龍牛頭角振華道70號樂華商場115號鋪",
    "region": "九龍區",
    "count": "1",
    "type": "NGO/社企",
    "phone": "2345 5251",
    "hours": "星期一﹑二﹑四﹑五 \n上午 8:45 至下午6:00\n星期三 上午8:45至下午7:00\n星期六 上午9:00至下午1:00",
    "photo": "無照片",
    "city": "香港",
    "country": "香港",
    "isGreaterBayArea": false
  },
  {
    "name": "柴灣浸信會牙科診所有限公司",
    "address": "香港柴灣翡翠道30號地庫1樓",
    "region": "港島區",
    "count": "1",
    "type": "NGO/社企",
    "phone": "2965 3000\n2965 3003",
    "hours": "",
    "photo": "無照片",
    "city": "香港",
    "country": "香港",
    "isGreaterBayArea": false
  },
  {
    "name": "香港防癆會勞士施羅孚牙科診所",
    "address": "香港灣仔皇后大道東282號 鄧肇堅醫院社區日間醫療中心5樓",
    "region": "港島區",
    "count": "1",
    "type": "NGO/社企",
    "phone": "3553 3535",
    "hours": "星期一至六　上午9:00至下午1:00\n星期一至五　下午2:00至下午7:00\n星期六    　下午2:00至下午5:00",
    "photo": "無照片",
    "city": "香港",
    "country": "香港",
    "isGreaterBayArea": false
  },
  {
    "name": "九龍鑽石山志蓮道5號牙科診所",
    "address": "九龍鑽石山志蓮道5號",
    "region": "九龍區",
    "count": "1",
    "type": "NGO/社企",
    "phone": "2354 1788",
    "hours": "星期一至六　上午9:00至下午6:00",
    "photo": "無照片",
    "city": "香港",
    "country": "香港",
    "isGreaterBayArea": false
  },
  {
    "name": "新界葵涌祖堯邨祖堯坊二樓A202-208號鋪牙科診所",
    "address": "新界葵涌祖堯邨祖堯坊二樓A202-208號鋪",
    "region": "新界區",
    "count": "1",
    "type": "NGO/社企",
    "phone": "2370 2669",
    "hours": "星期一至六      上午9時至下午6時",
    "photo": "無照片",
    "city": "香港",
    "country": "香港",
    "isGreaterBayArea": false
  },
  {
    "name": "工聯醫療服務中心牙科診所",
    "address": "灣仔杜老誌道6號羣策大廈13樓（港鐵灣仔站 A1 或會展站 A3 出口）",
    "region": "港島區",
    "count": "1",
    "type": "NGO/社企",
    "phone": "2576 4668",
    "hours": "星期一至六  上午10:00至下午1:00\n              下午2:00至7:00",
    "photo": "無照片",
    "city": "香港",
    "country": "香港",
    "isGreaterBayArea": false
  },
  {
    "name": "旺角診所",
    "address": "旺角彌敦道719號銀都商業大廈1樓（港鐵旺角站A1出口）",
    "region": "九龍區",
    "count": "1",
    "type": "NGO/社企",
    "phone": "2393 3676",
    "hours": "星期一至六　上午9:00至中午12:30\n               下午2:00至4:30\n               下午5:00至8:00",
    "photo": "無照片",
    "city": "香港",
    "country": "香港",
    "isGreaterBayArea": false
  },
  {
    "name": "觀塘分所牙科診所",
    "address": "觀塘馬蹄徑3號麗裕大廈地下（港鐵牛頭角站A出口）",
    "region": "九龍區",
    "count": "1",
    "type": "NGO/社企",
    "phone": "2357 9586",
    "hours": "星期一至六　上午11:00至下午2:30\n                  下午3:30至8:00",
    "photo": "無照片",
    "city": "香港",
    "country": "香港",
    "isGreaterBayArea": false
  },
  {
    "name": "荃灣分所牙科診所",
    "address": "荃灣青山公路210號富華中心地下A2舖（港鐵荃灣站B1出口）",
    "region": "新界區",
    "count": "1",
    "type": "NGO/社企",
    "phone": "2498 8163",
    "hours": "星期一至六  上午9:00至下午1:00\n                下午2:00至7:00",
    "photo": "無照片",
    "city": "香港",
    "country": "香港",
    "isGreaterBayArea": false
  },
  {
    "name": "屯門分所牙科診所",
    "address": "屯門鄉事會路132號雅都商場地下63號（輕鐵蔡意橋或西鐵屯門站河田出口）",
    "region": "新界區",
    "count": "1",
    "type": "NGO/社企",
    "phone": "/",
    "hours": "",
    "photo": "無照片",
    "city": "香港",
    "country": "香港",
    "isGreaterBayArea": false
  },
  {
    "name": "大埔分所牙科診所",
    "address": "大埔廣福道70-78號寶康大廈1樓",
    "region": "新界區",
    "count": "1",
    "type": "NGO/社企",
    "phone": "2656 1988",
    "hours": "星期一至六  上午9:00至中午12:30\n              下午2:00至4:30\n               下午5:00至7:00",
    "photo": "無照片",
    "city": "香港",
    "country": "香港",
    "isGreaterBayArea": false
  },
  {
    "name": "觀塘開源道72-80號溢財中心B01地下牙科診所",
    "address": "觀塘開源道72-80號溢財中心B01地下",
    "region": "九龍區",
    "count": "1",
    "type": "NGO/社企",
    "phone": "2321 8299\nwahtsapp \n6616 3554",
    "hours": "星期一至五      上午10時至下午7時30分\n星期六      上午10時至下午6時30分",
    "photo": "無照片",
    "city": "香港",
    "country": "香港",
    "isGreaterBayArea": false
  },
  {
    "name": "葵青區流動牙科車",
    "address": "新界葵青區(流動牙科車服務)",
    "region": "新界區",
    "count": "1",
    "type": "NGO/社企",
    "phone": "2436 3363",
    "hours": "星期一至五上午9點至12點\n公衆假期除外",
    "photo": "無照片",
    "city": "香港",
    "country": "香港",
    "isGreaterBayArea": false
  }
]