[
  {
    "name": "深圳自有光牙科診所",
    "address": "深圳市羅湖區人民南路2002號佳寧娜廣場3樓全層",
    "region": "羅湖區",
    "count": "1",
    "type": "私家診所",
    "sourceLink": "https://mybeame.com/",
    "phone": "+852 5388 7318",
    "hours": "09:00-19:00",
    "photo": "無照片",
    "city": "深圳",
    "country": "中國",
    "isGreaterBayArea": true,
    "prices": {
      "洗牙": "¥180-350/次",
      "補牙": "未知",
      "拔牙": "未知",
      "植牙": "未知"
    },
    "rating": 4.5,
    "is_chain": false
  },
  {
    "name": "深圳維港口腔診所",
    "address": "深圳市福田區福田南路皇御苑深港一號大樓1樓至2樓",
    "region": "福田區",
    "count": "4",
    "type": "私家診所",
    "sourceLink": "https://www.vickongdental.cn/Price-list.html",
    "phone": "+86 132 6696 2630",
    "hours": "09:30-18:30",
    "photo": "無照片",
    "city": "深圳",
    "country": "中國",
    "isGreaterBayArea": true,
    "prices": {
      "洗牙": "¥200-500/次",
      "補牙": "¥180-600/顆",
      "拔牙": "¥20-2000/顆",
      "植牙": "¥5180-15800/顆"
    },
    "rating": 4.7,
    "is_chain": true
  },
  {
    "name": "維港歡樂口腔診所（羅湖區委院）",
    "address": "深圳市羅湖區愛國路1002號外貿輕工大廈8樓",
    "region": "羅湖區",
    "count": "1",
    "type": "私家診所",
    "sourceLink": "https://www.vickongdental.cn/",
    "phone": "+86 132 6696 2630",
    "hours": "09:30-18:30",
    "photo": "無照片",
    "city": "深圳",
    "country": "中國",
    "isGreaterBayArea": true,
    "prices": {
      "洗牙": "¥200-500/次",
      "補牙": "¥180-600/顆",
      "拔牙": "¥200-2000/顆",
      "植牙": "¥5180-15800/顆"
    },
    "rating": 4.6,
    "is_chain": true
  },
  {
    "name": "維港歡笑口腔診所（福田皇崗院）",
    "address": "深圳市福田區福田南路皇御苑深港一號大樓1樓至2樓",
    "region": "福田區",
    "count": "1",
    "type": "私家診所",
    "sourceLink": "https://www.vickongdental.cn/",
    "phone": "+86 132 6696 2630",
    "hours": "09:30-18:30",
    "photo": "無照片",
    "city": "深圳",
    "country": "中國",
    "isGreaterBayArea": true,
    "prices": {
      "洗牙": "¥200-500/次",
      "補牙": "¥180-600/顆",
      "拔牙": "¥200-2000/顆",
      "植牙": "¥5180-15800/顆"
    },
    "rating": 4.6,
    "is_chain": true
  },
  {
    "name": "維港三康口腔診所（羅湖國貿院）",
    "address": "深圳市羅湖區春風路廬山大廈B座21樓",
    "region": "羅湖區",
    "count": "1",
    "type": "私家診所",
    "sourceLink": "https://www.vickongdental.cn/",
    "phone": "+86 132 6696 2630",
    "hours": "09:00-18:00",
    "photo": "無照片",
    "city": "深圳",
    "country": "中國",
    "isGreaterBayArea": true,
    "prices": {
      "洗牙": "¥200-500/次",
      "補牙": "¥180-600/顆",
      "拔牙": "¥200-2000/顆",
      "植牙": "¥5180-15800/顆"
    },
    "rating": 4.5,
    "is_chain": true
  },
  {
    "name": "深圳拜博口腔醫院",
    "address": "深圳市南山區南海大道2108號海麗大廈A座",
    "region": "南山區",
    "count": "1",
    "type": "私家診所",
    "sourceLink": "https://www.bybo.com.cn/",
    "phone": "+86 400 8888 602",
    "hours": "09:00-19:00",
    "photo": "無照片",
    "city": "深圳",
    "country": "中國",
    "isGreaterBayArea": true,
    "prices": {
      "洗牙": "¥180-400/次",
      "補牙": "¥150-600/顆",
      "拔牙": "¥100-2000/顆",
      "植牙": "¥5000-15000/顆"
    },
    "rating": 4.8,
    "is_chain": true
  },
  {
    "name": "深圳仁愛口腔醫院",
    "address": "深圳市福田區紅嶺南路1002號",
    "region": "福田區",
    "count": "1",
    "type": "私家診所",
    "sourceLink": "https://www.aimeidental.com/",
    "phone": "+86 755 8352 0088",
    "hours": "09:00-18:00",
    "photo": "無照片",
    "city": "深圳",
    "country": "中國",
    "isGreaterBayArea": true,
    "prices": {
      "洗牙": "¥200-450/次",
      "補牙": "¥200-650/顆",
      "拔牙": "¥200-2500/顆",
      "植牙": "¥5500-16000/顆"
    },
    "rating": 4.7,
    "is_chain": true
  },
  {
    "name": "深圳德康口腔門診",
    "address": "深圳市羅湖區寶安南路國際貿易大廈B座7樓",
    "region": "羅湖區",
    "count": "1",
    "type": "私家診所",
    "sourceLink": "https://www.dekang-dental.com/",
    "phone": "+86 755 8217 1245",
    "hours": "09:30-18:30",
    "photo": "無照片",
    "city": "深圳",
    "country": "中國",
    "isGreaterBayArea": true,
    "prices": {
      "洗牙": "¥150-350/次",
      "補牙": "¥150-550/顆",
      "拔牙": "¥150-1800/顆",
      "植牙": "¥4800-14500/顆"
    },
    "rating": 4.6,
    "is_chain": false
  },
  {
    "name": "深圳康泰牙科診所",
    "address": "深圳市南山區南海大道2068號南園大廈8樓",
    "region": "南山區",
    "count": "1",
    "type": "私家診所",
    "sourceLink": "https://www.dianping.com/shop/xxx123",
    "phone": "+86 755 8278 1234",
    "hours": "09:00-19:00",
    "photo": "無照片",
    "city": "深圳",
    "country": "中國",
    "isGreaterBayArea": true,
    "prices": {
      "洗牙": "¥120-300/次",
      "補牙": "¥120-500/顆",
      "拔牙": "¥100-1500/顆",
      "植牙": "¥4500-13000/顆"
    },
    "rating": 4.5,
    "is_chain": false
  },
  {
    "name": "深圳美麗島口腔門診",
    "address": "深圳市福田區新洲南路景田南新洲村3棟105號",
    "region": "福田區",
    "count": "1",
    "type": "私家診所",
    "sourceLink": "https://www.dianping.com/shop/xxx456",
    "phone": "+86 755 8382 5678",
    "hours": "09:30-19:30",
    "photo": "無照片",
    "city": "深圳",
    "country": "中國",
    "isGreaterBayArea": true,
    "prices": {
      "洗牙": "¥150-350/次",
      "補牙": "¥150-550/顆",
      "拔牙": "¥150-1800/顆",
      "植牙": "¥4800-14000/顆"
    },
    "rating": 4.4,
    "is_chain": false
  },
  {
    "name": "深圳陽光牙科門診",
    "address": "深圳市羅湖區金光華廣場B1樓",
    "region": "羅湖區",
    "count": "1",
    "type": "私家診所",
    "sourceLink": "https://www.dianping.com/shop/xxx789",
    "phone": "+86 755 8335 6789",
    "hours": "10:00-20:00",
    "photo": "無照片",
    "city": "深圳",
    "country": "中國",
    "isGreaterBayArea": true,
    "prices": {
      "洗牙": "¥180-380/次",
      "補牙": "¥180-580/顆",
      "拔牙": "¥180-1900/顆",
      "植牙": "¥5000-15000/顆"
    },
    "rating": 4.5,
    "is_chain": false
  },
  {
    "name": "深圳微笑口腔門診",
    "address": "深圳市南山區海德二道288號茂業百貨5樓",
    "region": "南山區",
    "count": "1",
    "type": "私家診所",
    "sourceLink": "https://www.dianping.com/shop/xxx101",
    "phone": "+86 755 8321 2345",
    "hours": "10:00-20:00",
    "photo": "無照片",
    "city": "深圳",
    "country": "中國",
    "isGreaterBayArea": true,
    "prices": {
      "洗牙": "¥200-400/次",
      "補牙": "¥200-600/顆",
      "拔牙": "¥200-2000/顆",
      "植牙": "¥5200-15500/顆"
    },
    "rating": 4.6,
    "is_chain": false
  },
  {
    "name": "深圳百齒口腔",
    "address": "深圳市福田區福華三路星河COCO City L2層",
    "region": "福田區",
    "count": "1",
    "type": "私家診所",
    "sourceLink": "https://www.dianping.com/shop/xxx102",
    "phone": "+86 755 8367 8901",
    "hours": "10:00-21:00",
    "photo": "無照片",
    "city": "深圳",
    "country": "中國",
    "isGreaterBayArea": true,
    "prices": {
      "洗牙": "¥180-380/次",
      "補牙": "¥180-580/顆",
      "拔牙": "¥180-1900/顆",
      "植牙": "¥5000-15000/顆"
    },
    "rating": 4.5,
    "is_chain": false
  }
]