[
  {
    "name": "深圳自有光牙科診所",
    "address": "中國深圳市羅湖區人民南路2002號佳寧娜廣場3樓全層",
    "region": "羅湖區",
    "count": "1",
    "type": "私家診所",
    "sourceLink": "https://mybeame.com/",
    "phone": "+852 5388 7318",
    "hours": "09:00-19:00",
    "photo": "無照片",
    "city": "深圳",
    "country": "中國",
    "isGreaterBayArea": true,
    "rating": 4.6,
    "is_chain": false,
    "prices": {
      "洗牙": "¥180-350/次",
      "補牙": "未知",
      "拔牙": "未知",
      "植牙": "未知"
    }
  },
  {
    "name": "深圳維港口腔診所",
    "address": "中國深圳市福田區福田南路皇御苑深港一號大樓1樓至2樓",
    "region": "福田區",
    "count": "4",
    "type": "私家診所",
    "sourceLink": "https://www.vickongdental.cn/Price-list.html",
    "phone": "+86 132 6696 2630",
    "hours": "09:30-18:30",
    "photo": "無照片",
    "city": "深圳",
    "country": "中國",
    "isGreaterBayArea": true,
    "rating": 4.8,
    "is_chain": true,
    "prices": {
      "洗牙": "¥200-500/次",
      "補牙": "¥180-600/顆",
      "拔牙": "¥20-2000/顆",
      "植牙": "¥5180-15800/顆"
    }
  },
  {
    "name": "維港歡樂口腔診所（羅湖區委院）",
    "address": "中國深圳市羅湖區愛國路1002號外貿輕工大廈8樓",
    "region": "羅湖區",
    "count": "1",
    "type": "私家診所",
    "sourceLink": "https://www.vickongdental.cn/",
    "phone": "+86 132 6696 2630",
    "hours": "09:30-18:30",
    "photo": "無照片",
    "city": "深圳",
    "country": "中國",
    "isGreaterBayArea": true,
    "rating": 4.8,
    "is_chain": true,
    "prices": {
      "洗牙": "¥200-500/次",
      "補牙": "¥180-600/顆",
      "拔牙": "¥200-2000/顆",
      "植牙": "¥5180-15800/顆"
    }
  },
  {
    "name": "維港歡笑口腔診所（福田皇崗院）",
    "address": "中國深圳市福田區福田南路皇御苑深港一號大樓1樓至2樓",
    "region": "福田區",
    "count": "1",
    "type": "私家診所",
    "sourceLink": "https://www.vickongdental.cn/",
    "phone": "+86 132 6696 2630",
    "hours": "09:30-18:30",
    "photo": "無照片",
    "city": "深圳",
    "country": "中國",
    "isGreaterBayArea": true,
    "rating": 4.8,
    "is_chain": true,
    "prices": {
      "洗牙": "¥200-500/次",
      "補牙": "¥180-600/顆",
      "拔牙": "¥200-2000/顆",
      "植牙": "¥5180-15800/顆"
    }
  },
  {
    "name": "維港三康口腔診所（羅湖國貿院）",
    "address": "中國深圳市羅湖區春風路廬山大廈B座21樓",
    "region": "羅湖區",
    "count": "1",
    "type": "私家診所",
    "sourceLink": "https://www.vickongdental.cn/",
    "phone": "+86 132 6696 2630",
    "hours": "09:00-18:00",
    "photo": "無照片",
    "city": "深圳",
    "country": "中國",
    "isGreaterBayArea": true,
    "rating": 4.7,
    "is_chain": true,
    "prices": {
      "洗牙": "¥200-500/次",
      "補牙": "¥180-600/顆",
      "拔牙": "¥200-2000/顆",
      "植牙": "¥5180-15800/顆"
    }
  },
  {
    "name": "維港加樂口腔診所（羅湖金光華院）",
    "address": "中國深圳市羅湖區南湖路凱利商業廣場1樓至2樓",
    "region": "羅湖區",
    "count": "1",
    "type": "私家診所",
    "sourceLink": "https://www.vickongdental.cn/",
    "phone": "+86 132 6696 2630",
    "hours": "09:00-18:00",
    "photo": "無照片",
    "city": "深圳",
    "country": "中國",
    "isGreaterBayArea": true,
    "rating": 4.7,
    "is_chain": true,
    "prices": {
      "洗牙": "¥200-500/次",
      "補牙": "¥180-600/顆",
      "拔牙": "¥200-2000/顆",
      "植牙": "¥5180-15800/顆"
    }
  },
  {
    "name": "維港康固口腔診所（福田KKONE分院）",
    "address": "中國深圳市福田區下沙花好園106-107號1樓至2樓",
    "region": "福田區",
    "count": "1",
    "type": "私家診所",
    "sourceLink": "https://www.vickongdental.cn/",
    "phone": "+86 132 6696 2630",
    "hours": "09:30-18:30",
    "photo": "無照片",
    "city": "深圳",
    "country": "中國",
    "isGreaterBayArea": true,
    "rating": 4.7,
    "is_chain": true,
    "prices": {
      "洗牙": "¥200-500/次",
      "補牙": "¥180-600/顆",
      "拔牙": "¥200-2000/顆",
      "植牙": "¥5180-15800/顆"
    }
  },
  {
    "name": "深圳五一齿科",
    "address": "深圳市罗湖区深南东路5002号地王大厦",
    "district": "羅湖區",
    "city": "深圳市",
    "region": "羅湖區",
    "phone": "0755-8225-6333",
    "hours": "9:00-18:00",
    "prices": {
      "植牙": "¥10000元起"
    },
    "type": "私家診所",
    "country": "中國",
    "isGreaterBayArea": true,
    "rating": 4.6,
    "is_chain": false
  },
  {
    "name": "深圳美佳德口腔（罗湖店）",
    "address": "深圳市罗湖区南湖街道建设路1098-2号",
    "district": "羅湖區",
    "city": "深圳市",
    "region": "羅湖區",
    "phone": "0755-2562-3333",
    "hours": "9:00-20:00",
    "prices": {
      "洗牙": "¥58元起"
    },
    "type": "私家診所",
    "country": "中國",
    "isGreaterBayArea": true,
    "rating": 4.5,
    "is_chain": true
  },
  {
    "name": "深圳博森口腔（莲塘店）",
    "address": "深圳市罗湖区罗沙路4099号兰亭名园一单元203-204号",
    "district": "羅湖區",
    "city": "深圳市",
    "region": "羅湖區",
    "phone": "0755-2526-8088",
    "hours": "8:30-19:00",
    "prices": {
      "植牙": "¥5000元起"
    },
    "type": "私家診所",
    "country": "中國",
    "isGreaterBayArea": true,
    "rating": 4.5,
    "is_chain": true
  },
  {
    "name": "深圳格伦菲尔口腔（龙华分院）",
    "address": "深圳市龙华区和平路与清泉路交汇处（清湖地铁站）",
    "district": "龍華區",
    "city": "深圳市",
    "region": "龍華區",
    "phone": "0755-2102-2999",
    "hours": "9:00-21:00",
    "prices": {
      "植牙": "¥980元起"
    },
    "type": "私家診所",
    "country": "中國",
    "isGreaterBayArea": true,
    "rating": 4.6,
    "is_chain": true
  },
  {
    "name": "深圳博森口腔（红山店）",
    "address": "深圳市龙华区民治街道中梅路润达圆庭B座南街铺107、201之B1-201",
    "district": "龍華區",
    "city": "深圳市",
    "region": "龍華區",
    "phone": "0755-2307-6889",
    "hours": "9:00-21:00",
    "prices": {
      "矯正": "¥2000元起"
    },
    "type": "私家診所",
    "country": "中國",
    "isGreaterBayArea": true,
    "rating": 4.5,
    "is_chain": true
  },
  {
    "name": "深圳同步齿科（南山分院）",
    "address": "南山区南海大道海王大厦A座17楼",
    "district": "南山区",
    "city": "深圳市",
    "country": "中國",
    "phone": "0755-2665-5333",
    "hours": "9:00-18:00",
    "prices": {
      "矯正": "¥38000元起"
    },
    "isGreaterBayArea": true,
    "type": "私家診所",
    "region": "南山區",
    "rating": 4.7,
    "is_chain": true
  },
  {
    "name": "深圳登缇斯口腔",
    "address": "南山区（具体地址未明确）",
    "district": "南山区",
    "city": "深圳市",
    "country": "中國",
    "phone": "0755-8653-1111",
    "hours": "9:00-19:00",
    "prices": {
      "植牙": "¥12000元起"
    },
    "isGreaterBayArea": true,
    "type": "私家診所",
    "region": "南山區",
    "rating": 4.8,
    "is_chain": false
  },
  {
    "name": "深圳登缇斯口腔",
    "address": "南山区（具体地址未明确）",
    "region": "南山区",
    "district": "南山区",
    "city": "深圳市",
    "country": "中國",
    "type": "私營診所",
    "phone": "0755-8653-1111",
    "hours": "9:00-19:00",
    "prices": {
      "植牙": "高難度穿顴穿翼種植"
    },
    "isGreaterBayArea": true,
    "sourceLink": "",
    "rating": 4.8,
    "is_chain": false
  },
  {
    "name": "深圳同步齿科（福田分院）",
    "address": "福田區（地址未詳）",
    "region": "福田區",
    "district": "福田區",
    "city": "深圳市",
    "country": "中國",
    "type": "私家診所",
    "phone": "0755-2665-5333",
    "hours": "9:00-18:00",
    "prices": {
      "植牙": "¥13800元起"
    },
    "isGreaterBayArea": true,
    "rating": 4.7,
    "is_chain": true,
    "sourceLink": ""
  },
  {
    "name": "深圳美佳德口腔（羅湖店）",
    "address": "羅湖區南湖街道建設路1098-2號",
    "region": "羅湖區",
    "district": "羅湖區",
    "city": "深圳市",
    "country": "中國",
    "type": "私家診所",
    "phone": "0755-2562-3333",
    "hours": "9:00-20:00",
    "prices": {
      "洗牙": "超聲波潔牙58元起"
    },
    "isGreaterBayArea": true,
    "rating": 4.5,
    "is_chain": true,
    "sourceLink": ""
  },
  {
    "name": "深圳博森口腔（蓮塘店）",
    "address": "羅湖區羅沙路4099號蘭亭名園一單元203-204號",
    "region": "羅湖區",
    "district": "羅湖區",
    "city": "深圳市",
    "country": "中國",
    "type": "私家診所",
    "phone": "0755-2526-8088",
    "hours": "8:30-19:00",
    "prices": {
      "植牙": "¥5000元起"
    },
    "isGreaterBayArea": true,
    "rating": 4.5,
    "is_chain": true,
    "sourceLink": ""
  },
  {
    "name": "深圳博森口腔（紅山店）",
    "address": "龍華區民治街道中梅路潤達圓庭B座南街鋪107、201之B1-201",
    "region": "龍華區",
    "district": "龍華區",
    "city": "深圳市",
    "country": "中國",
    "type": "私家診所",
    "phone": "0755-2307-6889",
    "hours": "9:00-21:00",
    "prices": {
      "矯正": "¥2000元起"
    },
    "isGreaterBayArea": true,
    "rating": 4.5,
    "is_chain": true,
    "sourceLink": ""
  },
  {
    "name": "深圳世紀河山口腔",
    "address": "寶安區新沙路565號1樓",
    "region": "寶安區",
    "district": "寶安區",
    "city": "深圳市",
    "country": "中國",
    "type": "私家診所",
    "phone": "0755-2780-6333",
    "hours": "9:00-18:00",
    "prices": {
      "矯正": "¥45000元起"
    },
    "isGreaterBayArea": true,
    "rating": 4.6,
    "is_chain": false,
    "sourceLink": ""
  },
  {
    "name": "深圳仁樺口腔醫院",
    "address": "深圳市南山區高新南十道深圳灣科技生態園8棟",
    "region": "南山區",
    "district": "南山區",
    "city": "深圳市",
    "country": "中國",
    "type": "私家診所",
    "phone": "0755-8657-3333",
    "hours": "9:00-20:00",
    "prices": {
      "洗牙": "¥250-600/次",
      "補牙": "¥300-1000/顆",
      "拔牙": "¥400-2500/顆",
      "植牙": "¥10000-30000/顆"
    },
    "isGreaterBayArea": true,
    "rating": 4.7,
    "is_chain": true,
    "sourceLink": "https://www.renhuakq.com"
  },
  {
    "name": "深圳拜博口腔（車公廟院）",
    "address": "深圳市福田區車公廟泰然九路盛唐大廈101號",
    "region": "福田區",
    "district": "福田區",
    "city": "深圳市",
    "country": "中國",
    "type": "私家診所",
    "phone": "0755-8321-6333",
    "hours": "9:00-18:00",
    "prices": {
      "洗牙": "¥198-588/次",
      "補牙": "¥280-980/顆",
      "拔牙": "¥350-1800/顆",
      "植牙": "¥9800-28000/顆",
      "矯正": "¥20000-40000/副"
    },
    "isGreaterBayArea": true,
    "rating": 4.7,
    "is_chain": true,
    "sourceLink": "https://www.bybdental.com"
  }
]