  {
    "name": "美奧口腔·种植正畸中心(南山旗舰店)",
    "address": "南山区南海大道2289号天利中央广场A座3楼",
    "region": "南山區",
    "count": "1",
    "type": "私家診所",
    "phone": "+86 755 8654 3210",
    "hours": "09:00-18:30",
    "photo": "無照片",
    "city": "深圳",
    "country": "中國",
    "isGreaterBayArea": true,
    "prices": {
      "洗牙": "¥200-450/次",
      "補牙": "¥220-700/顆",
      "拔牙": "¥300-1800/顆",
      "植牙": "¥8800-25000/顆"
    },
    "rating": 4.9,
    "is_chain": true
  },
  {
    "name": "同步齿科·种植牙中心(南山店)",
    "address": "南山区创业路现代城华庭3栋1楼",
    "region": "南山區",
    "count": "1",
    "type": "私家診所",
    "phone": "+86 755 2643 5678",
    "hours": "09:30-18:30",
    "photo": "無照片",
    "city": "深圳",
    "country": "中國",
    "isGreaterBayArea": true,
    "prices": {
      "洗牙": "¥180-380/次",
      "補牙": "¥200-650/顆",
      "拔牙": "¥280-1500/顆",
      "植牙": "¥8000-22000/顆"
    },
    "rating": 4.8,
    "is_chain": true
  },
  {
    "name": "瑞尔齿科(海岸城门诊)",
    "address": "南山区文心五路海岸大厦西座3楼",
    "region": "南山區",
    "count": "1",
    "type": "私家診所",
    "phone": "+86 755 8621 2345",
    "hours": "09:00-18:00",
    "photo": "無照片",
    "city": "深圳",
    "country": "中國",
    "isGreaterBayArea": true,
    "prices": {
      "洗牙": "¥300-600/次",
      "補牙": "¥350-900/顆",
      "拔牙": "¥400-2200/顆",
      "植牙": "¥9800-28000/顆"
    },
    "rating": 4.8,
    "is_chain": true
  },
  {
    "name": "爱康健齿科·种植牙中心(南山分院)",
    "address": "南山区南海大道3003号阳光华艺大厦2楼",
    "region": "南山區",
    "count": "1",
    "type": "私家診所",
    "phone": "+86 755 8665 4321",
    "hours": "09:30-18:30",
    "photo": "無照片",
    "city": "深圳",
    "country": "中國",
    "isGreaterBayArea": true,
    "prices": {
      "洗牙": "¥220-480/次",
      "補牙": "¥250-750/顆",
      "拔牙": "¥320-1900/顆",
      "植牙": "¥9000-26000/顆"
    },
    "rating": 4.7,
    "is_chain": true
  },
  {
    "name": "南山牙科医院·二级专科",
    "address": "南山区桃园路田厦国际中心B座4楼",
    "region": "南山區",
    "count": "1",
    "type": "醫院",
    "phone": "+86 755 2605 6789",
    "hours": "08:30-17:30",
    "photo": "無照片",
    "city": "深圳",
    "country": "中國",
    "isGreaterBayArea": true,
    "prices": {
      "洗牙": "¥150-300/次",
      "補牙": "¥180-600/顆",
      "拔牙": "¥200-1500/顆",
      "植牙": "¥7000-20000/顆"
    },
    "rating": 4.6,
    "is_chain": false
  },
  {
    "name": "格伦菲尔口腔(南山科技园店)",
    "address": "南山区科技园科发路8号金融基地2栋2楼",
    "region": "南山區",
    "count": "1",
    "type": "私家診所",
    "phone": "+86 755 8650 1234",
    "hours": "09:30-18:30",
    "photo": "無照片",
    "city": "深圳",
    "country": "中國",
    "isGreaterBayArea": true,
    "prices": {
      "洗牙": "¥198-398/次",
      "補牙": "¥238-698/顆",
      "拔牙": "¥298-1680/顆",
      "植牙": "¥7980-22800/顆"
    },
    "rating": 4.9,
    "is_chain": true
  },
  {
    "name": "麦芽口腔(南山机构)",
    "address": "南山区南海大道与东滨路交汇处万豪广场3楼",
    "region": "南山區",
    "count": "1",
    "type": "私家診所",
    "phone": "+86 755 2648 7654",
    "hours": "09:00-18:00",
    "photo": "無照片",
    "city": "深圳",
    "country": "中國",
    "isGreaterBayArea": true,
    "prices": {
      "洗牙": "¥168-368/次",
      "補牙": "¥198-598/顆",
      "拔牙": "¥258-1380/顆",
      "植牙": "¥6980-19800/顆"
    },
    "rating": 4.8,
    "is_chain": true
  },
  {
    "name": "正夫口腔(南山海雅店)",
    "address": "南山区南海大道2088号海雅百货5楼",
    "region": "南山區",
    "count": "1",
    "type": "私家診所",
    "phone": "+86 755 8623 4567",
    "hours": "09:30-18:30",
    "photo": "無照片",
    "city": "深圳",
    "country": "中國",
    "isGreaterBayArea": true,
    "prices": {
      "洗牙": "¥158-358/次",
      "補牙": "¥188-558/顆",
      "拔牙": "¥238-1280/顆",
      "植牙": "¥6580-18800/顆"
    },
    "rating": 4.7,
    "is_chain": true
  },
  {
    "name": "六和拜尔口腔(南山分院)",
    "address": "南山区创业路西海湾花园B区商铺2楼",
    "region": "南山區",
    "count": "1",
    "type": "私家診所",
    "phone": "+86 755 2665 4321",
    "hours": "09:00-18:00",
    "photo": "無照片",
    "city": "深圳",
    "country": "中國",
    "isGreaterBayArea": true,
    "prices": {
      "洗牙": "¥188-388/次",
      "補牙": "¥218-638/顆",
      "拔牙": "¥278-1480/顆",
      "植牙": "¥7280-20800/顆"
    },
    "rating": 4.7,
    "is_chain": true
  },
  {
    "name": "极光口腔(南山旗舰店)",
    "address": "南山区后海大道与登良路交汇处恒裕中心3楼",
    "region": "南山區",
    "count": "1",
    "type": "私家診所",
    "phone": "+86 755 8657 8901",
    "hours": "09:30-18:30",
    "photo": "無照片",
    "city": "深圳",
    "country": "中國",
    "isGreaterBayArea": true,
    "prices": {
      "洗牙": "¥208-428/次",
      "補牙": "¥248-688/顆",
      "拔牙": "¥308-1680/顆",
      "植牙": "¥8280-23800/顆"
    },
    "rating": 4.8,
    "is_chain": true
  },
  {
    "name": "罗湖人民医院口腔中心",
    "address": "罗湖区友谊路47号罗湖人民医院3号楼3楼",
    "region": "羅湖區",
    "count": "1",
    "type": "醫院",
    "phone": "+86 755 8224 0033",
    "hours": "08:00-17:30",
    "photo": "無照片",
    "city": "深圳",
    "country": "中國",
    "isGreaterBayArea": true,
    "prices": {
      "洗牙": "¥120-280/次",
      "補牙": "¥150-500/顆",
      "拔牙": "¥180-1200/顆",
      "植牙": "¥5000-15000/顆"
    },
    "rating": 4.7,
    "is_chain": false
  },
  {
    "name": "同步齿科(罗湖门诊部)",
    "address": "罗湖区深南东路3040号邮政大厦2楼",
    "region": "羅湖區",
    "count": "1",
    "type": "私家診所",
    "phone": "+86 755 8228 4567",
    "hours": "09:30-18:30",
    "photo": "無照片",
    "city": "深圳",
    "country": "中國",
    "isGreaterBayArea": true,
    "prices": {
      "洗牙": "¥180-380/次",
      "補牙": "¥200-650/顆",
      "拔牙": "¥280-1500/顆",
      "植牙": "¥8000-22000/顆"
    },
    "rating": 4.8,
    "is_chain": true
  },
  {
    "name": "六和拜尔口腔(罗湖总院)",
    "address": "罗湖区深南东路5002号地王大厦附楼3楼",
    "region": "羅湖區",
    "count": "1",
    "type": "私家診所",
    "phone": "+86 755 2586 5432",
    "hours": "09:00-18:00",
    "photo": "無照片",
    "city": "深圳",
    "country": "中國",
    "isGreaterBayArea": true,
    "prices": {
      "洗牙": "¥188-388/次",
      "補牙": "¥218-638/顆",
      "拔牙": "¥278-1480/顆",
      "植牙": "¥7280-20800/顆"
    },
    "rating": 4.7,
    "is_chain": true
  },
  {
    "name": "美莱口腔(罗湖机构)",
    "address": "罗湖区宝安南路2078号深港豪苑2楼",
    "region": "羅湖區",
    "count": "1",
    "type": "私家診所",
    "phone": "+86 755 2558 7654",
    "hours": "09:30-18:30",
    "photo": "無照片",
    "city": "深圳",
    "country": "中國",
    "isGreaterBayArea": true,
    "prices": {
      "洗牙": "¥198-428/次",
      "補牙": "¥238-698/顆",
      "拔牙": "¥298-1680/顆",
      "植牙": "¥7980-22800/顆"
    },
    "rating": 4.8,
    "is_chain": true
  },
  {
    "name": "爱康健齿科(罗湖总院)",
    "address": "罗湖区东门南路3007号金龙大厦2楼",
    "region": "羅湖區",
    "count": "1",
    "type": "私家診所",
    "phone": "+86 755 8222 3456",
    "hours": "09:00-18:00",
    "photo": "無照片",
    "city": "深圳",
    "country": "中國",
    "isGreaterBayArea": true,
    "prices": {
      "洗牙": "¥220-480/次",
      "補牙": "¥250-750/顆",
      "拔牙": "¥320-1900/顆",
      "植牙": "¥9000-26000/顆"
    },
    "rating": 4.7,
    "is_chain": true
  },
  {
    "name": "格伦菲尔口腔(罗湖东门店)",
    "address": "罗湖区东门中路2088号东门中心城3楼",
    "region": "羅湖區",
    "count": "1",
    "type": "私家診所",
    "phone": "+86 755 8230 1234",
    "hours": "09:30-18:30",
    "photo": "無照片",
    "city": "深圳",
    "country": "中國",
    "isGreaterBayArea": true,
    "prices": {
      "洗牙": "¥198-398/次",
      "補牙": "¥238-698/顆",
      "拔牙": "¥298-1680/顆",
      "植牙": "¥7980-22800/顆"
    },
    "rating": 4.9,
    "is_chain": true
  },
  {
    "name": "正夫口腔(罗湖国贸店)",
    "address": "罗湖区南湖路3009号国贸商业大厦3楼",
    "region": "羅湖區",
    "count": "1",
    "type": "私家診所",
    "phone": "+86 755 8225 6789",
    "hours": "09:00-18:00",
    "photo": "無照片",
    "city": "深圳",
    "country": "中國",
    "isGreaterBayArea": true,
    "prices": {
      "洗牙": "¥158-358/次",
      "補牙": "¥188-558/顆",
      "拔牙": "¥238-1280/顆",
      "植牙": "¥6580-18800/顆"
    },
    "rating": 4.7,
    "is_chain": true
  },
  {
    "name": "麦芽口腔(罗湖机构)",
    "address": "罗湖区深南东路5002号地王大厦附楼2楼",
    "region": "羅湖區",
    "count": "1",
    "type": "私家診所",
    "phone": "+86 755 2586 7890",
    "hours": "09:30-18:30",
    "photo": "無照片",
    "city": "深圳",
    "country": "中國",
    "isGreaterBayArea": true,
    "prices": {
      "洗牙": "¥168-368/次",
      "補牙": "¥198-598/顆",
      "拔牙": "¥258-1380/顆",
      "植牙": "¥6980-19800/顆"
    },
    "rating": 4.8,
    "is_chain": true
  },
  {
    "name": "极光口腔(罗湖旗舰店)",
    "address": "罗湖区深南东路5016号京基100大厦3楼",
    "region": "羅湖區",
    "count": "1",
    "type": "私家診所",
    "phone": "+86 755 8235 6789",
    "hours": "09:00-18:00",
    "photo": "無照片",
    "city": "深圳",
    "country": "中國",
    "isGreaterBayArea": true,
    "prices": {
      "洗牙": "¥208-428/次",
      "補牙": "¥248-688/顆",
      "拔牙": "¥308-1680/顆",
      "植牙": "¥8280-23800/顆"
    },
    "rating": 4.8,
    "is_chain": true
  },
  {
    "name": "瑞尔齿科(罗湖万象城店)",
    "address": "罗湖区宝安南路1881号华润万象城3楼",
    "region": "羅湖區",
    "count": "1",
    "type": "私家診所",
    "phone": "+86 755 2559 0123",
    "hours": "09:30-18:30",
    "photo": "無照片",
    "city": "深圳",
    "country": "中國",
    "isGreaterBayArea": true,
    "prices": {
      "洗牙": "¥300-600/次",
      "補牙": "¥350-900/顆",
      "拔牙": "¥400-2200/顆",
      "植牙": "¥9800-28000/顆"
    },
    "rating": 4.8,
    "is_chain": true
  },
  {
    "name": "龙华人民医院口腔科",
    "address": "龙华区龙观东路龙华人民医院门诊部3楼",
    "region": "龍華區",
    "count": "1",
    "type": "醫院",
    "phone": "+86 755 2774 1589",
    "hours": "08:00-17:30",
    "photo": "無照片",
    "city": "深圳",
    "country": "中國",
    "isGreaterBayArea": true,
    "prices": {
      "洗牙": "¥120-280/次",
      "補牙": "¥150-500/顆",
      "拔牙": "¥180-1200/顆",
      "植牙": "¥5000-15000/顆"
    },
    "rating": 4.6,
    "is_chain": false
  },
  {
    "name": "同步齿科(龙华店)",
    "address": "龙华区人民路与建设路交汇处壹方天地B区3楼",
    "region": "龍華區",
    "count": "1",
    "type": "私家診所",
    "phone": "+86 755 2813 4567",
    "hours": "09:30-18:30",
    "photo": "無照片",
    "city": "深圳",
    "country": "中國",
    "isGreaterBayArea": true,
    "prices": {
      "洗牙": "¥180-380/次",
      "補牙": "¥200-650/顆",
      "拔牙": "¥280-1500/顆",
      "植牙": "¥8000-22000/顆"
    },
    "rating": 4.7,
    "is_chain": true
  },
  {
    "name": "美奥口腔(龙华机构)",
    "address": "龙华区龙华街道人民路4203号金銮国际商务大厦3楼",
    "region": "龍華區",
    "count": "1",
    "type": "私家診所",
    "phone": "+86 755 2815 6789",
    "hours": "09:00-18:30",
    "photo": "無照片",
    "city": "深圳",
    "country": "中國",
    "isGreaterBayArea": true,
    "prices": {
      "洗牙": "¥200-450/次",
      "補牙": "¥220-700/顆",
      "拔牙": "¥300-1800/顆",
      "植牙": "¥8800-25000/顆"
    },
    "rating": 4.8,
    "is_chain": true
  },
  {
    "name": "格伦菲尔口腔(龙华店)",
    "address": "龙华区民治街道梅龙路与中梅路交汇处星河盛世2楼",
    "region": "龍華區",
    "count": "1",
    "type": "私家診所",
    "phone": "+86 755 2812 3456",
    "hours": "09:30-18:30",
    "photo": "無照片",
    "city": "深圳",
    "country": "中國",
    "isGreaterBayArea": true,
    "prices": {
      "洗牙": "¥198-398/次",
      "補牙": "¥238-698/顆",
      "拔牙": "¥298-1680/顆",
      "植牙": "¥7980-22800/顆"
    },
    "rating": 4.8,
    "is_chain": true
  },
  {
    "name": "爱康健齿科(龙华分院)",
    "address": "龙华区龙华街道东环一路与和平路交汇处金銮时代广场3楼",
    "region": "龍華區",
    "count": "1",
    "type": "私家診所",
    "phone": "+86 755 2814 5678",
    "hours": "09:00-18:00",
    "photo": "無照片",
    "city": "深圳",
    "country": "中國",
    "isGreaterBayArea": true,
    "prices": {
      "洗牙": "¥220-480/次",
      "補牙": "¥250-750/顆",
      "拔牙": "¥320-1900/顆",
      "植牙": "¥9000-26000/顆"
    },
    "rating": 4.7,
    "is_chain": true
  },
  {
    "name": "麦芽口腔(龙华机构)",
    "address": "龙华区民治街道梅龙路与民旺路交汇处星河COCO City3楼",
    "region": "龍華區",
    "count": "1",
    "type": "私家診所",
    "phone": "+86 755 2816 7890",
    "hours": "09:30-18:30",
    "photo": "無照片",
    "city": "深圳",
    "country": "中國",
    "isGreaterBayArea": true,
    "prices": {
      "洗牙": "¥168-368/次",
      "補牙": "¥198-598/顆",
      "拔牙": "¥258-1380/顆",
      "植牙": "¥6980-19800/顆"
    },
    "rating": 4.7,
    "is_chain": true
  },
  {
    "name": "正夫口腔(龙华店)",
    "address": "龙华区龙华街道人民路与建设路交汇处壹城中心5区3楼",
    "region": "龍華區",
    "count": "1",
    "type": "私家診所",
    "phone": "+86 755 2817 8901",
    "hours": "09:00-18:00",
    "photo": "無照片",
    "city": "深圳",
    "country": "中國",
    "isGreaterBayArea": true,
    "prices": {
      "洗牙": "¥158-358/次",
      "補牙": "¥188-558/顆",
      "拔牙": "¥238-1280/顆",
      "植牙": "¥6580-18800/顆"
    },
    "rating": 4.6,
    "is_chain": true
  },
  {
    "name": "极光口腔(龙华旗舰店)",
    "address": "龙华区民治街道梅龙路与民治大道交汇处绿景香颂3楼",
    "region": "龍華區",
    "count": "1",
    "type": "私家診所",
    "phone": "+86 755 2818 9012",
    "hours": "09:30-18:30",
    "photo": "無照片",
    "city": "深圳",
    "country": "中國",
    "isGreaterBayArea": true,
    "prices": {
      "洗牙": "¥208-428/次",
      "補牙": "¥248-688/顆",
      "拔牙": "¥308-1680/顆",
      "植牙": "¥8280-23800/顆"
    },
    "rating": 4.7,
    "is_chain": true
  },
  {
    "name": "六和拜尔口腔(龙华分院)",
    "address": "龙华区龙华街道东环一路与和平路交汇处金銮时代广场2楼",
    "region": "龍華區",
    "count": "1",
    "type": "私家診所",
    "phone": "+86 755 2819 0123",
    "hours": "09:00-18:00",
    "photo": "無照片",
    "city": "深圳",
    "country": "中國",
    "isGreaterBayArea": true,
    "prices": {
      "洗牙": "¥188-388/次",
      "補牙": "¥218-638/顆",
      "拔牙": "¥278-1480/顆",
      "植牙": "¥7280-20800/顆"
    },
    "rating": 4.7,
    "is_chain": true
  },
  {
    "name": "瑞尔齿科(龙华壹方天地店)",
    "address": "龙华区人民路与建设路交汇处壹方天地A区3楼",
    "region": "龍華區",
    "count": "1",
    "type": "私家診所",
    "phone": "+86 755 2820 1234",
    "hours": "09:30-18:30",
    "photo": "無照片",
    "city": "深圳",
    "country": "中國",
    "isGreaterBayArea": true,
    "prices": {
      "洗牙": "¥300-600/次",
      "補牙": "¥350-900/顆",
      "拔牙": "¥400-2200/顆",
      "植牙": "¥9800-28000/顆"
    },
    "rating": 4.8,
    "is_chain": true
  }
]
