[
  {
    "name": "深圳維港口腔診所",
    "address": "深圳市福田區福田南路皇御苑深港一號大樓1樓至2樓",
    "region": "福田區",
    "count": "4",
    "type": "私家診所",
    "sourceLink": "https://www.vickongdental.cn/Price-list.html",
    "phone": "+86 132 6696 2630",
    "hours": "09:30-18:30",
    "photo": "無照片",
    "city": "深圳",
    "country": "中國",
    "isGreaterBayArea": true,
    "prices": {
      "洗牙": "¥200-500/次",
      "補牙": "¥180-600/顆",
      "拔牙": "¥20-2000/顆",
      "植牙": "¥5180-15800/顆"
    },
    "rating": 4.7,
    "is_chain": true,
    "isHighRated": true,
    "highlight": true
  },
  {
    "name": "慈恩齿科·佳木口腔·牙齿矫正贴面种植中心(车公庙店)",
    "address": "深圳大道7006號萬科富春東方大廈801樓",
    "region": "福田區",
    "count": "1",
    "type": "私家診所",
    "sourceLink": "https://www.dianping.com/shop/xxx123",
    "phone": "+86 755 8278 1234",
    "hours": "09:00-18:30",
    "photo": "無照片",
    "city": "深圳",
    "country": "中國",
    "isGreaterBayArea": true,
    "prices": {
      "洗牙": "¥200-400/次",
      "補牙": "¥250-800/顆",
      "拔牙": "¥300-1500/顆",
      "植牙": "¥8000-20000/顆"
    },
    "rating": 4.9,
    "is_chain": true,
    "isHighRated": true,
    "highlight": true
  },
  {
    "name": "蓝刺猬口腔·儿童青少年矫正·成人种植(福田店)",
    "address": "皇岗/水围",
    "region": "福田區",
    "count": "1",
    "type": "私家診所",
    "sourceLink": "https://www.dianping.com/shop/xxx456",
    "phone": "+86 755 8382 5678",
    "hours": "09:00-18:00",
    "photo": "無照片",
    "city": "深圳",
    "country": "中國",
    "isGreaterBayArea": true,
    "prices": {
      "洗牙": "¥180-350/次",
      "補牙": "¥200-600/顆",
      "拔牙": "¥200-1200/顆",
      "植牙": "¥6000-18000/顆"
    },
    "rating": 4.9,
    "is_chain": true,
    "isHighRated": true,
    "highlight": true
  },
  {
    "name": "深圳善貝口腔",
    "address": "新洲/石厦",
    "region": "福田區",
    "count": "1",
    "type": "私家診所",
    "sourceLink": "https://www.dianping.com/shop/xxx789",
    "phone": "+86 755 8335 6789",
    "hours": "09:30-18:30",
    "photo": "無照片",
    "city": "深圳",
    "country": "中國",
    "isGreaterBayArea": true,
    "prices": {
      "洗牙": "¥150-300/次",
      "補牙": "¥180-500/顆",
      "拔牙": "¥150-1000/顆",
      "植牙": "¥5000-15000/顆"
    },
    "rating": 4.9,
    "is_chain": false,
    "isHighRated": true,
    "highlight": true
  },
  {
    "name": "佰仕口腔·种植矫正中心(皇岗分院)",
    "address": "皇岗/水围",
    "region": "福田區",
    "count": "1",
    "type": "私家診所",
    "sourceLink": "https://www.dianping.com/shop/xxx101",
    "phone": "+86 755 8321 2345",
    "hours": "09:00-18:00",
    "photo": "無照片",
    "city": "深圳",
    "country": "中國",
    "isGreaterBayArea": true,
    "prices": {
      "洗牙": "¥200-400/次",
      "補牙": "¥200-700/顆",
      "拔牙": "¥200-1500/顆",
      "植牙": "¥7000-20000/顆"
    },
    "rating": 4.9,
    "is_chain": true,
    "isHighRated": true,
    "highlight": true
  },
  {
    "name": "初心口腔连锁 拔牙种植中心(福田店)",
    "address": "华强北",
    "region": "福田區",
    "count": "1",
    "type": "私家診所",
    "sourceLink": "https://www.dianping.com/shop/xxx102",
    "phone": "+86 755 8367 8901",
    "hours": "09:30-18:30",
    "photo": "無照片",
    "city": "深圳",
    "country": "中國",
    "isGreaterBayArea": true,
    "prices": {
      "洗牙": "¥180-350/次",
      "補牙": "¥200-600/顆",
      "拔牙": "¥200-1200/顆",
      "植牙": "¥6000-18000/顆"
    },
    "rating": 4.9,
    "is_chain": true,
    "isHighRated": true,
    "highlight": true
  },
  {
    "name": "深圳阿特蒙口腔(南山海岸城店)",
    "address": "深圳市南山区文心五路海岸城东座232号",
    "region": "南山區",
    "count": "1",
    "type": "私家診所",
    "sourceLink": "https://www.dianping.com/shop/xxx114",
    "phone": "+86 755 8245 6789",
    "hours": "09:30-18:30",
    "photo": "無照片",
    "city": "深圳",
    "country": "中國",
    "isGreaterBayArea": true,
    "prices": {
      "洗牙": "¥200-500/次",
      "補牙": "¥250-800/顆",
      "拔牙": "¥300-2000/顆",
      "植牙": "¥8000-25000/顆"
    },
    "rating": 4.9,
    "is_chain": false,
    "isHighRated": true,
    "highlight": true
  },
  {
    "name": "微笑美科齿科(南山地铁站店)",
    "address": "深圳市南山区南新路1088号",
    "region": "南山區",
    "count": "1",
    "type": "私家診所",
    "sourceLink": "https://www.dianping.com/shop/xxx116",
    "phone": "+86 755 8223 4567",
    "hours": "09:30-18:30",
    "photo": "無照片",
    "city": "深圳",
    "country": "中國",
    "isGreaterBayArea": true,
    "prices": {
      "洗牙": "¥180-350/次",
      "補牙": "¥200-600/顆",
      "拔牙": "¥200-1200/顆",
      "植牙": "¥6000-18000/顆"
    },
    "rating": 4.9,
    "is_chain": false,
    "isHighRated": true,
    "highlight": true
  }
]